[{"name":"Campamento Colquiri","latitude":-17.392,"longitude":-67.125,"population":5972,"departamento":"La Paz","provincia":"Inquisivi","municipio":"Colquiri","capital":"Colquiri","megacity":"","ineCode":"21004"},{"name":"Apolo","latitude":-14.718,"longitude":-68.416,"population":6376,"departamento":"La Paz","provincia":"Franz Tamayo","municipio":"Apolo","capital":"Apolo","megacity":"","ineCode":"20701"},{"name":"Chimore","latitude":-16.996,"longitude":-65.146,"population":6260,"departamento":"Cochabamba","provincia":"Carrasco","municipio":"Chimoré","capital":"Chimoré","megacity":"","ineCode":"31204"},{"name":"San Juan De Yapacani","latitude":-17.292,"longitude":-63.847,"population":5401,"departamento":"Santa Cruz","provincia":"Ichilo","municipio":"San Juan","capital":"San Juan","megacity":"","ineCode":"70404"},{"name":"Caranavi","latitude":-15.835,"longitude":-67.566,"population":13299,"departamento":"La Paz","provincia":"Caranavi","municipio":"Caranavi","capital":"Caranavi","megacity":"","ineCode":"22001"},{"name":"Puerto Suárez","latitude":-18.971,"longitude":-57.804,"population":16343,"departamento":"Santa Cruz","provincia":"Germán Busch","municipio":"Puerto Suarez","capital":"Puerto Suarez","megacity":"","ineCode":"71401"},{"name":"Huanuni","latitude":-18.284,"longitude":-66.839,"population":20336,"departamento":"Oruro","provincia":"Pantaleón Dalence","municipio":"Huanuni","capital":"Villa de Huanuni","megacity":"","ineCode":"40701"},{"name":"Rurrenabaque","latitude":-14.433,"longitude":-67.512,"population":13446,"departamento":"Beni","provincia":"General José Ballivián","municipio":"Puerto Menor de Rurrenabaque","capital":"Rurrenabaque","megacity":"","ineCode":"80304"},{"name":"Arroyo Concepcion","latitude":-19.025,"longitude":-57.712,"population":5302,"departamento":"Santa Cruz","provincia":"Germán Busch","municipio":"Puerto Quijarro","capital":"Puerto Quijarro","megacity":"","ineCode":"71402"},{"name":"Cobija","latitude":-11.026,"longitude":-68.763,"population":44120,"departamento":"Pando","provincia":"Nicolás Suárez","municipio":"Cobija","capital":"Cobija","megacity":"","ineCode":"90101"},{"name":"Concepcion","latitude":-16.135,"longitude":-62.024,"population":9915,"departamento":"Santa Cruz","provincia":"Ñuflo De Chávez","municipio":"Concepción","capital":"Concepción","megacity":"","ineCode":"71101"},{"name":"Puerto Quijarro","latitude":-19.003,"longitude":-57.718,"population":11071,"departamento":"Santa Cruz","provincia":"Germán Busch","municipio":"Puerto Quijarro","capital":"Puerto Quijarro","megacity":"","ineCode":"71402"},{"name":"Fernandez Alonso","latitude":-17.008,"longitude":-63.225,"population":5363,"departamento":"Santa Cruz","provincia":"Obispo Santistéban","municipio":"Fernández Alonso","capital":"Fernández Alonso","megacity":"","ineCode":"71004"},{"name":"San Ramón","latitude":-16.615,"longitude":-62.503,"population":6398,"departamento":"Santa Cruz","provincia":"Ñuflo De Chávez","municipio":"San Julián","capital":"San Julián","megacity":"","ineCode":"71103"},{"name":"Magdalena","latitude":-13.258,"longitude":-64.054,"population":5516,"departamento":"Beni","provincia":"Iténez","municipio":"Magdalena","capital":"Magdalena","megacity":"","ineCode":"80801"},{"name":"Roboré","latitude":-18.333,"longitude":-59.752,"population":10594,"departamento":"Santa Cruz","provincia":"Chiquitos","municipio":"Roboré","capital":"Roboré","megacity":"","ineCode":"70503"},{"name":"Yapacaní","latitude":-17.401,"longitude":-63.91,"population":30939,"departamento":"Santa Cruz","provincia":"Ichilo","municipio":"Yapacaní","capital":"Yapacaní","megacity":"","ineCode":"70403"},{"name":"Mairana","latitude":-18.12,"longitude":-63.956,"population":6756,"departamento":"Santa Cruz","provincia":"Florida","municipio":"Mairana","capital":"Mairana","megacity":"","ineCode":"70903"},{"name":"Porco","latitude":-19.799,"longitude":-65.988,"population":5287,"departamento":"Potosí","provincia":"Antonio Quijarro","municipio":"Porco","capital":"Porco","megacity":"","ineCode":"51203"},{"name":"San Jose de Chiquitos","latitude":-17.849,"longitude":-60.739,"population":12486,"departamento":"Santa Cruz","provincia":"Chiquitos","municipio":"San José","capital":"San José","megacity":"","ineCode":"70501"},{"name":"Ascencion De Guarayos","latitude":-15.896,"longitude":-63.186,"population":19974,"departamento":"Santa Cruz","provincia":"Guarayos","municipio":"Ascención de Guarayos","capital":"Ascención de Guarayos","megacity":"","ineCode":"71501"},{"name":"Reyes","latitude":-14.2946,"longitude":-67.3335,"population":7202,"departamento":"Beni","provincia":"General José Ballivián","municipio":"Reyes","capital":"Reyes","megacity":"","ineCode":"80301"},{"name":"San Matias","latitude":-16.359,"longitude":-58.4,"population":6336,"departamento":"Santa Cruz","provincia":"Angel Sandoval","municipio":"San Matías","capital":"San Matías","megacity":"","ineCode":"71201"},{"name":"Villamontes","latitude":-21.269,"longitude":-63.465,"population":30228,"departamento":"Tarija","provincia":"Gran Chaco","municipio":"Villa Montes","capital":"Villa Montes","megacity":"","ineCode":"60303"},{"name":"Santa Fe De Yapacani","latitude":-17.393,"longitude":-63.827,"population":8454,"departamento":"Santa Cruz","provincia":"Ichilo","municipio":"San Carlos","capital":"San Carlos","megacity":"","ineCode":"70402"},{"name":"Mineros","latitude":-17.119,"longitude":-63.232,"population":18340,"departamento":"Santa Cruz","provincia":"Obispo Santistéban","municipio":"Mineros","capital":"Mineros","megacity":"","ineCode":"71003"},{"name":"Riberalta","latitude":-11.01,"longitude":-66.053,"population":78773,"departamento":"Beni","provincia":"Vaca Diez","municipio":"Riberalta","capital":"Riberalta","megacity":"","ineCode":"80201"},{"name":"Guayaramerín","latitude":-10.827,"longitude":-65.355,"population":35803,"departamento":"Beni","provincia":"Vaca Diez","municipio":"Guayaramerín","capital":"Guayaramerín","megacity":"","ineCode":"80202"},{"name":"Warnes","latitude":-17.513,"longitude":-63.17,"population":77918,"departamento":"Santa Cruz","provincia":"Warnes","municipio":"Warnes","capital":"Warnes","megacity":"Santa Cruz","ineCode":"70201"},{"name":"San Ignacio De Moxos","latitude":-14.997,"longitude":-65.64,"population":10054,"departamento":"Beni","provincia":"Moxos","municipio":"San Ignacio","capital":"San Ignacio","megacity":"","ineCode":"80501"},{"name":"Cotoca","latitude":-17.754,"longitude":-62.997,"population":19482,"departamento":"Santa Cruz","provincia":"Andrés Ibáñez","municipio":"Cotoca","capital":"Cotoca","megacity":"Santa Cruz","ineCode":"70102"},{"name":"General Saavedra","latitude":-17.229,"longitude":-63.214,"population":5267,"departamento":"Santa Cruz","provincia":"Obispo Santistéban","municipio":"General Saavedra","capital":"General Saavedra","megacity":"","ineCode":"71002"},{"name":"Pailon","latitude":-17.663,"longitude":-62.713,"population":9850,"departamento":"Santa Cruz","provincia":"Chiquitos","municipio":"Pailón","capital":"Pailón","megacity":"","ineCode":"70502"},{"name":"La Guardia","latitude":-17.893,"longitude":-63.328,"population":74546,"departamento":"Santa Cruz","provincia":"Andrés Ibáñez","municipio":"La Guardia","capital":"La Guardia","megacity":"Santa Cruz","ineCode":"70104"},{"name":"Portachuelo","latitude":-17.354,"longitude":-63.397,"population":14091,"departamento":"Santa Cruz","provincia":"Sara","municipio":"Portachuelo","capital":"Portachuelo","megacity":"","ineCode":"70601"},{"name":"Achacachi","latitude":-16.047,"longitude":-68.685,"population":9302,"departamento":"La Paz","provincia":"Omasuyos","municipio":"Achacachi","capital":"Achacachi","megacity":"","ineCode":"20201"},{"name":"Santa Rosa Del Sara","latitude":-17.107,"longitude":-63.6,"population":5238,"departamento":"Santa Cruz","provincia":"Sara","municipio":"Santa Rosa","capital":"Santa Rosa","megacity":"","ineCode":"70602"},{"name":"Okinawa 1","latitude":-17.213,"longitude":-62.897,"population":6408,"departamento":"Santa Cruz","provincia":"Warnes","municipio":"Okinawa Uno","capital":"Okinawa Uno","megacity":"","ineCode":"70202"},{"name":"Achocalla","latitude":-16.574,"longitude":-68.148,"population":18722,"departamento":"La Paz","provincia":"Murillo","municipio":"Achocalla","capital":"Achocalla","megacity":"La Paz","ineCode":"20104"},{"name":"El Torno","latitude":-17.994,"longitude":-63.385,"population":22219,"departamento":"Santa Cruz","provincia":"Andrés Ibáñez","municipio":"El Torno","capital":"El Torno","megacity":"Santa Cruz","ineCode":"70105"},{"name":"Montero","latitude":-17.337,"longitude":-63.251,"population":107298,"departamento":"Santa Cruz","provincia":"Obispo Santistéban","municipio":"Montero","capital":"Montero","megacity":"","ineCode":"71001"},{"name":"Santa Cruz de La Sierra","latitude":-17.783,"longitude":-63.184,"population":1442396,"departamento":"Santa Cruz","provincia":"Andrés Ibáñez","municipio":"Santa Cruz de la Sierra","capital":"Santa Cruz de la Sierra","megacity":"Santa Cruz","ineCode":"70101"},{"name":"Trinidad","latitude":-14.829,"longitude":-64.9,"population":101628,"departamento":"Beni","provincia":"Cercado","municipio":"Trinidad","capital":"Trinidad","megacity":"","ineCode":"80101"},{"name":"Cuatro Cañadas","latitude":-17.267,"longitude":-62.557,"population":8195,"departamento":"Santa Cruz","provincia":"Ñuflo De Chávez","municipio":"Cuatro Cañadas","capital":"Cuatro Cañadas","megacity":"","ineCode":"71106"},{"name":"Bermejo","latitude":-22.732,"longitude":-64.337,"population":29564,"departamento":"Tarija","provincia":"Arce","municipio":"Bermejo","capital":"Bermejo","megacity":"","ineCode":"60202"},{"name":"Lahuachaca","latitude":-17.377,"longitude":-67.677,"population":5874,"departamento":"La Paz","provincia":"Aroma","municipio":"Sicasica","capital":"Villa Aroma","megacity":"","ineCode":"21301"},{"name":"Copacabana","latitude":-16.165,"longitude":-69.085,"population":5731,"departamento":"La Paz","provincia":"Manco Kapac","municipio":"Copacabana","capital":"Copacabana","megacity":"","ineCode":"21701"},{"name":"Viacha","latitude":-16.648,"longitude":-68.291,"population":62979,"departamento":"La Paz","provincia":"Ingavi","municipio":"Viacha","capital":"Viacha","megacity":"La Paz","ineCode":"20801"},{"name":"San Julian","latitude":-16.909,"longitude":-62.618,"population":19374,"departamento":"Santa Cruz","provincia":"Ñuflo De Chávez","municipio":"San Antonio de Lomerio","capital":"San Antonio de Lomerio","megacity":"","ineCode":"71104"},{"name":"San Borja","latitude":-14.858,"longitude":-66.745,"population":17520,"departamento":"Beni","provincia":"General José Ballivián","municipio":"San Borja","capital":"San Borja","megacity":"","ineCode":"80302"},{"name":"Monteagudo","latitude":-19.809,"longitude":-63.958,"population":9135,"departamento":"Chuquisaca","provincia":"Hernando Siles","municipio":"Monteagudo","capital":"Monteagudo","megacity":"","ineCode":"10501"},{"name":"Cliza","latitude":-17.594,"longitude":-65.931,"population":8518,"departamento":"Cochabamba","provincia":"Germán Jordán","municipio":"Cliza","capital":"Cliza","megacity":"","ineCode":"30801"},{"name":"Santa Ana","latitude":-13.748,"longitude":-65.428,"population":12191,"departamento":"Beni","provincia":"Yacuma","municipio":"Santa Ana","capital":"Santa Ana de Yacuma","megacity":"","ineCode":"80401"},{"name":"San Javier","latitude":-16.275,"longitude":-62.506,"population":7119,"departamento":"Santa Cruz","provincia":"Ñuflo De Chávez","municipio":"San Javier","capital":"San Javier","megacity":"","ineCode":"71102"},{"name":"Yacuiba","latitude":-22.02,"longitude":-63.679,"population":61917,"departamento":"Tarija","provincia":"Gran Chaco","municipio":"Yacuiba","capital":"Yacuiba","megacity":"","ineCode":"60301"},{"name":"Colcapirhua","latitude":-17.387,"longitude":-66.23,"population":51990,"departamento":"Cochabamba","provincia":"Quillacollo","municipio":"Colcapirhua","capital":"Colcapirhua","megacity":"Cochabamba","ineCode":"30905"},{"name":"Sipe Sipe","latitude":-17.449,"longitude":-66.35,"population":11860,"departamento":"Cochabamba","provincia":"Quillacollo","municipio":"Sipesipe","capital":"Sipesipe","megacity":"Cochabamba","ineCode":"30902"},{"name":"San Ignacio De Velasco","latitude":-16.378,"longitude":-60.963,"population":23126,"departamento":"Santa Cruz","provincia":"Velasco","municipio":"San Ignacio","capital":"San Ignacio","megacity":"","ineCode":"70301"},{"name":"Palos Blancos","latitude":-15.586,"longitude":-67.25,"population":5478,"departamento":"La Paz","provincia":"Sud Yungas","municipio":"Palos Blancos","capital":"Palos Blancos","megacity":"","ineCode":"21104"},{"name":"Sacaba","latitude":-17.4,"longitude":-66.056,"population":150110,"departamento":"Cochabamba","provincia":"Chapare","municipio":"Sacaba","capital":"Sacaba","megacity":"","ineCode":"31001"},{"name":"Patacamaya","latitude":-17.236,"longitude":-67.917,"population":11249,"departamento":"La Paz","provincia":"Aroma","municipio":"Patacamaya","capital":"Patacamaya","megacity":"","ineCode":"21305"},{"name":"Quillacollo","latitude":-17.387,"longitude":-66.282,"population":117859,"departamento":"Cochabamba","provincia":"Quillacollo","municipio":"Quillacollo","capital":"Quillacollo","megacity":"Cochabamba","ineCode":"30901"},{"name":"Ivirgarzama","latitude":-17.037,"longitude":-64.862,"population":8255,"departamento":"Cochabamba","provincia":"Carrasco","municipio":"Puerto Villarroel","capital":"Puerto Villarroel","megacity":"","ineCode":"31205"},{"name":"Comarapa","latitude":-17.918,"longitude":-64.525,"population":5315,"departamento":"Santa Cruz","provincia":"Manuel María Caballero","municipio":"Comarapa","capital":"Comarapa","megacity":"","ineCode":"71301"},{"name":"Uncia","latitude":-18.469,"longitude":-66.56,"population":8902,"departamento":"Potosí","provincia":"Rafael Bustillo","municipio":"Uncía","capital":"Uncía","megacity":"","ineCode":"50201"},{"name":"Cochabamba","latitude":-17.427,"longitude":-66.166,"population":632013,"departamento":"Cochabamba","provincia":"Cercado","municipio":"Cochabamba","capital":"Cochabamba","megacity":"Cochabamba","ineCode":"30101"},{"name":"El Alto","latitude":-16.512,"longitude":-68.199,"population":846880,"departamento":"La Paz","provincia":"Murillo","municipio":"El Alto","capital":"El Alto","megacity":"La Paz","ineCode":"20105"},{"name":"Tarija","latitude":-21.537,"longitude":-64.729,"population":179561,"departamento":"Tarija","provincia":"Cercado","municipio":"Tarija","capital":"Tarija","megacity":"","ineCode":"60101"},{"name":"Vinto","latitude":-17.389,"longitude":-66.332,"population":41017,"departamento":"Cochabamba","provincia":"Quillacollo","municipio":"Vinto","capital":"Vinto","megacity":"","ineCode":"30904"},{"name":"Tiquipaya","latitude":-17.34,"longitude":-66.221,"population":49473,"departamento":"Cochabamba","provincia":"Quillacollo","municipio":"Tiquipaya","capital":"Tiquipaya","megacity":"Cochabamba","ineCode":"30903"},{"name":"Capinota","latitude":-17.712,"longitude":-66.265,"population":5264,"departamento":"Cochabamba","provincia":"Capinota","municipio":"Capinota","capital":"Capinota","megacity":"","ineCode":"30701"},{"name":"Camiri","latitude":-20.038,"longitude":-63.525,"population":28855,"departamento":"Santa Cruz","provincia":"Cordillera","municipio":"Camiri","capital":"Camiri","megacity":"","ineCode":"70706"},{"name":"La Paz","latitude":-16.496,"longitude":-68.12,"population":758845,"departamento":"La Paz","provincia":"Murillo","municipio":"Nuestra Señora de La Paz","capital":"Nuestra Señora de La Paz","megacity":"La Paz","ineCode":"20101"},{"name":"Tupiza","latitude":-21.44,"longitude":-65.721,"population":27463,"departamento":"Potosí","provincia":"Sur Chichas","municipio":"Tupiza","capital":"Tupiza","megacity":"","ineCode":"50801"},{"name":"Vallegrande","latitude":-18.49,"longitude":-64.106,"population":10158,"departamento":"Santa Cruz","provincia":"Vallegrande","municipio":"Vallegrande","capital":"Vallegrande","megacity":"","ineCode":"70801"},{"name":"Oruro","latitude":-17.961,"longitude":-67.092,"population":264943,"departamento":"Oruro","provincia":"Cercado","municipio":"Oruro","capital":"Oruro","megacity":"","ineCode":"40101"},{"name":"Shinahota","latitude":-16.993,"longitude":-65.247,"population":5669,"departamento":"Cochabamba","provincia":"Tiraque","municipio":"Shinahota","capital":"Shinahota","megacity":"","ineCode":"31602"},{"name":"Villazón","latitude":-22.083,"longitude":-65.599,"population":35337,"departamento":"Potosí","provincia":"Modesto Omiste","municipio":"Villazón","capital":"Villazón","megacity":"","ineCode":"51501"},{"name":"Potosí","latitude":-19.581,"longitude":-65.753,"population":176022,"departamento":"Potosí","provincia":"Tomás Frías","municipio":"Potosí","capital":"Potosí","megacity":"","ineCode":"50101"},{"name":"Challapata","latitude":-18.895,"longitude":-66.769,"population":12684,"departamento":"Oruro","provincia":"Abaroa","municipio":"Challapata","capital":"Challapata","megacity":"","ineCode":"40201"},{"name":"Camargo","latitude":-20.641,"longitude":-65.209,"population":5263,"departamento":"Chuquisaca","provincia":"Nor Cinti","municipio":"Camargo","capital":"Camargo","megacity":"","ineCode":"10701"},{"name":"Sucre","latitude":-19.041,"longitude":-65.265,"population":238798,"departamento":"Chuquisaca","provincia":"Oropeza","municipio":"Sucre","capital":"Sucre","megacity":"","ineCode":"10101"},{"name":"Entre Ríos","latitude":-17.197,"longitude":-64.541,"population":7477,"departamento":"Cochabamba","provincia":"Carrasco","municipio":"Entre Ríos","capital":"Entre Ríos","megacity":"","ineCode":"31206"},{"name":"Uyuni","latitude":-20.462,"longitude":-66.824,"population":18134,"departamento":"Potosí","provincia":"Antonio Quijarro","municipio":"Uyuni","capital":"Uyuni","megacity":"","ineCode":"51201"},{"name":"Aiquile","latitude":-18.204,"longitude":-65.182,"population":7863,"departamento":"Cochabamba","provincia":"Campero","municipio":"Aiquile","capital":"Aiquile","megacity":"","ineCode":"30201"},{"name":"Llallagua","latitude":-18.426,"longitude":-66.572,"population":25405,"departamento":"Potosí","provincia":"Rafael Bustillo","municipio":"Llallagua","capital":"Llallagua","megacity":"","ineCode":"50203"},{"name":"Siglo XX","latitude":-18.428,"longitude":-66.595,"population":5834,"departamento":"Potosí","provincia":"Rafael Bustillo","municipio":"Llallagua","capital":"Llallagua","megacity":"","ineCode":"50203"},{"name":"Caracollo","latitude":-17.638,"longitude":-67.222,"population":6361,"departamento":"Oruro","provincia":"Cercado","municipio":"Caracollo","capital":"Caracollo","megacity":"","ineCode":"40102"},{"name":"Punata","latitude":-17.544,"longitude":-65.84,"population":19601,"departamento":"Cochabamba","provincia":"Punata","municipio":"Punata","capital":"Villa Punata","megacity":"","ineCode":"31401"}]